{
  "league": "CBB",
  "season": "2025-26",
  "generated": "2026-03-19",
  "count": 344,
  "programs": [
    {
      "school": "Boston College",
      "conference": "ACC",
      "arena": "Conte Forum",
      "city": "Chestnut Hill",
      "state": "MA",
      "coordinates": {
        "latitude": 42.3355,
        "longitude": -71.1685
      }
    },
    {
      "school": "California",
      "conference": "ACC",
      "arena": "Haas Pavilion",
      "city": "Berkeley",
      "state": "CA",
      "coordinates": {
        "latitude": 37.8729,
        "longitude": -122.2596
      }
    },
    {
      "school": "Clemson",
      "conference": "ACC",
      "arena": "Littlejohn Coliseum",
      "city": "Clemson",
      "state": "SC",
      "coordinates": {
        "latitude": 34.6778,
        "longitude": -82.8365
      }
    },
    {
      "school": "Duke",
      "conference": "ACC",
      "arena": "Cameron Indoor Stadium",
      "city": "Durham",
      "state": "NC",
      "coordinates": {
        "latitude": 36.0011,
        "longitude": -78.9408
      }
    },
    {
      "school": "Florida State",
      "conference": "ACC",
      "arena": "Donald L. Tucker Civic Center",
      "city": "Tallahassee",
      "state": "FL",
      "coordinates": {
        "latitude": 30.4391,
        "longitude": -84.2802
      }
    },
    {
      "school": "Georgia Tech",
      "conference": "ACC",
      "arena": "McCamish Pavilion",
      "city": "Atlanta",
      "state": "GA",
      "coordinates": {
        "latitude": 33.7738,
        "longitude": -84.3964
      }
    },
    {
      "school": "Louisville",
      "conference": "ACC",
      "arena": "KFC Yum! Center",
      "city": "Louisville",
      "state": "KY",
      "coordinates": {
        "latitude": 38.2547,
        "longitude": -85.7568
      }
    },
    {
      "school": "Miami (FL)",
      "conference": "ACC",
      "arena": "Watsco Center",
      "city": "Coral Gables",
      "state": "FL",
      "coordinates": {
        "latitude": 25.709,
        "longitude": -80.2714
      }
    },
    {
      "school": "NC State",
      "conference": "ACC",
      "arena": "Lenovo Center",
      "city": "Raleigh",
      "state": "NC",
      "coordinates": {
        "latitude": 35.8031,
        "longitude": -78.7228
      }
    },
    {
      "school": "North Carolina",
      "conference": "ACC",
      "arena": "Dean E. Smith Center",
      "city": "Chapel Hill",
      "state": "NC",
      "coordinates": {
        "latitude": 35.9046,
        "longitude": -79.0469
      }
    },
    {
      "school": "Notre Dame",
      "conference": "ACC",
      "arena": "Purcell Pavilion",
      "city": "Notre Dame",
      "state": "IN",
      "coordinates": {
        "latitude": 41.6969,
        "longitude": -86.2347
      }
    },
    {
      "school": "Pitt",
      "conference": "ACC",
      "arena": "Petersen Events Center",
      "city": "Pittsburgh",
      "state": "PA",
      "coordinates": {
        "latitude": 40.4442,
        "longitude": -79.9618
      }
    },
    {
      "school": "SMU",
      "conference": "ACC",
      "arena": "Moody Coliseum",
      "city": "Dallas",
      "state": "TX",
      "coordinates": {
        "latitude": 32.8458,
        "longitude": -96.7851
      }
    },
    {
      "school": "Stanford",
      "conference": "ACC",
      "arena": "Maples Pavilion",
      "city": "Stanford",
      "state": "CA",
      "coordinates": {
        "latitude": 37.4339,
        "longitude": -122.1614
      }
    },
    {
      "school": "Syracuse",
      "conference": "ACC",
      "arena": "JMA Wireless Dome",
      "city": "Syracuse",
      "state": "NY",
      "coordinates": {
        "latitude": 43.0361,
        "longitude": -76.1363
      }
    },
    {
      "school": "Virginia",
      "conference": "ACC",
      "arena": "John Paul Jones Arena",
      "city": "Charlottesville",
      "state": "VA",
      "coordinates": {
        "latitude": 38.0545,
        "longitude": -78.5104
      }
    },
    {
      "school": "Virginia Tech",
      "conference": "ACC",
      "arena": "Cassell Coliseum",
      "city": "Blacksburg",
      "state": "VA",
      "coordinates": {
        "latitude": 37.2271,
        "longitude": -80.4241
      }
    },
    {
      "school": "Wake Forest",
      "conference": "ACC",
      "arena": "Lawrence Joel Veterans Memorial Coliseum",
      "city": "Winston-Salem",
      "state": "NC",
      "coordinates": {
        "latitude": 36.082,
        "longitude": -80.2748
      }
    },
    {
      "school": "Washington",
      "conference": "ACC",
      "arena": "Alaska Airlines Arena",
      "city": "Seattle",
      "state": "WA",
      "coordinates": {
        "latitude": 47.6507,
        "longitude": -122.3015
      }
    },
    {
      "school": "Albany (NY)",
      "conference": "America East",
      "arena": "SEFCU Arena",
      "city": "Albany",
      "state": "NY",
      "coordinates": {
        "latitude": 42.688,
        "longitude": -73.8225
      }
    },
    {
      "school": "Binghamton",
      "conference": "America East",
      "arena": "Events Center",
      "city": "Vestal",
      "state": "NY",
      "coordinates": {
        "latitude": 42.083,
        "longitude": -76.0008
      }
    },
    {
      "school": "Bryant",
      "conference": "America East",
      "arena": "Chace Athletic Center",
      "city": "Smithfield",
      "state": "RI",
      "coordinates": {
        "latitude": 41.8852,
        "longitude": -71.4973
      }
    },
    {
      "school": "Maine",
      "conference": "America East",
      "arena": "Cross Insurance Center",
      "city": "Bangor",
      "state": "ME",
      "coordinates": {
        "latitude": 44.8041,
        "longitude": -68.7788
      }
    },
    {
      "school": "UMBC",
      "conference": "America East",
      "arena": "UMBC Event Center",
      "city": "Baltimore",
      "state": "MD",
      "coordinates": {
        "latitude": 39.2578,
        "longitude": -76.7134
      }
    },
    {
      "school": "New Hampshire",
      "conference": "America East",
      "arena": "Whittemore Center Arena",
      "city": "Durham",
      "state": "NH",
      "coordinates": {
        "latitude": 43.1323,
        "longitude": -70.9241
      }
    },
    {
      "school": "New Haven",
      "conference": "America East",
      "arena": "Jeffrey P. Hazell Athletics Center",
      "city": "West Haven",
      "state": "CT",
      "coordinates": {
        "latitude": 41.2738,
        "longitude": -72.9597
      }
    },
    {
      "school": "UMass Lowell",
      "conference": "America East",
      "arena": "Tsongas Center",
      "city": "Lowell",
      "state": "MA",
      "coordinates": {
        "latitude": 42.6451,
        "longitude": -71.3234
      }
    },
    {
      "school": "Vermont",
      "conference": "America East",
      "arena": "Patrick Gymnasium",
      "city": "Burlington",
      "state": "VT",
      "coordinates": {
        "latitude": 44.4768,
        "longitude": -73.1962
      }
    },
    {
      "school": "Charlotte",
      "conference": "American Athletic",
      "arena": "Dale F. Halton Arena",
      "city": "Charlotte",
      "state": "NC",
      "coordinates": {
        "latitude": 35.3041,
        "longitude": -80.7299
      }
    },
    {
      "school": "East Carolina",
      "conference": "American Athletic",
      "arena": "Williams Arena at Minges Coliseum",
      "city": "Greenville",
      "state": "NC",
      "coordinates": {
        "latitude": 35.6053,
        "longitude": -77.3661
      }
    },
    {
      "school": "Florida Atlantic",
      "conference": "American Athletic",
      "arena": "Eleanor R. Baldwin Arena",
      "city": "Boca Raton",
      "state": "FL",
      "coordinates": {
        "latitude": 26.3719,
        "longitude": -80.1028
      }
    },
    {
      "school": "Memphis",
      "conference": "American Athletic",
      "arena": "FedExForum",
      "city": "Memphis",
      "state": "TN",
      "coordinates": {
        "latitude": 35.1383,
        "longitude": -90.0505
      }
    },
    {
      "school": "Navy",
      "conference": "American Athletic",
      "arena": "Alumni Hall",
      "city": "Annapolis",
      "state": "MD",
      "coordinates": {
        "latitude": 38.9885,
        "longitude": -76.4833
      }
    },
    {
      "school": "North Texas",
      "conference": "American Athletic",
      "arena": "Super Pit",
      "city": "Denton",
      "state": "TX",
      "coordinates": {
        "latitude": 33.2149,
        "longitude": -97.1484
      }
    },
    {
      "school": "Rice",
      "conference": "American Athletic",
      "arena": "Tudor Fieldhouse",
      "city": "Houston",
      "state": "TX",
      "coordinates": {
        "latitude": 29.7166,
        "longitude": -95.4019
      }
    },
    {
      "school": "South Florida",
      "conference": "American Athletic",
      "arena": "Yuengling Center",
      "city": "Tampa",
      "state": "FL",
      "coordinates": {
        "latitude": 28.0684,
        "longitude": -82.4301
      }
    },
    {
      "school": "Temple",
      "conference": "American Athletic",
      "arena": "Liacouras Center",
      "city": "Philadelphia",
      "state": "PA",
      "coordinates": {
        "latitude": 39.9808,
        "longitude": -75.1548
      }
    },
    {
      "school": "Tulane",
      "conference": "American Athletic",
      "arena": "Avron B. Fogelman Arena",
      "city": "New Orleans",
      "state": "LA",
      "coordinates": {
        "latitude": 29.9395,
        "longitude": -90.1204
      }
    },
    {
      "school": "Tulsa",
      "conference": "American Athletic",
      "arena": "Reynolds Center",
      "city": "Tulsa",
      "state": "OK",
      "coordinates": {
        "latitude": 36.1496,
        "longitude": -95.9994
      }
    },
    {
      "school": "UAB",
      "conference": "American Athletic",
      "arena": "Bartow Arena",
      "city": "Birmingham",
      "state": "AL",
      "coordinates": {
        "latitude": 33.5028,
        "longitude": -86.8091
      }
    },
    {
      "school": "Wichita State",
      "conference": "American Athletic",
      "arena": "Charles Koch Arena",
      "city": "Wichita",
      "state": "KS",
      "coordinates": {
        "latitude": 37.7203,
        "longitude": -97.2913
      }
    },
    {
      "school": "Austin Peay",
      "conference": "ASUN",
      "arena": "Dunn Center",
      "city": "Clarksville",
      "state": "TN",
      "coordinates": {
        "latitude": 36.536,
        "longitude": -87.3654
      }
    },
    {
      "school": "Bellarmine",
      "conference": "ASUN",
      "arena": "Knights Hall",
      "city": "Louisville",
      "state": "KY",
      "coordinates": {
        "latitude": 38.2438,
        "longitude": -85.654
      }
    },
    {
      "school": "Central Arkansas",
      "conference": "ASUN",
      "arena": "Farris Center",
      "city": "Conway",
      "state": "AR",
      "coordinates": {
        "latitude": 35.092,
        "longitude": -92.4467
      }
    },
    {
      "school": "Eastern Kentucky",
      "conference": "ASUN",
      "arena": "McBrayer Arena",
      "city": "Richmond",
      "state": "KY",
      "coordinates": {
        "latitude": 37.7384,
        "longitude": -84.2964
      }
    },
    {
      "school": "Jacksonville",
      "conference": "ASUN",
      "arena": "Swisher Gymnasium",
      "city": "Jacksonville",
      "state": "FL",
      "coordinates": {
        "latitude": 30.3722,
        "longitude": -81.6282
      }
    },
    {
      "school": "Lipscomb",
      "conference": "ASUN",
      "arena": "Allen Arena",
      "city": "Nashville",
      "state": "TN",
      "coordinates": {
        "latitude": 36.1046,
        "longitude": -86.8275
      }
    },
    {
      "school": "North Alabama",
      "conference": "ASUN",
      "arena": "Flowers Hall",
      "city": "Florence",
      "state": "AL",
      "coordinates": {
        "latitude": 34.7992,
        "longitude": -87.6719
      }
    },
    {
      "school": "Queens (NC)",
      "conference": "ASUN",
      "arena": "Dale F. Halton Arena",
      "city": "Charlotte",
      "state": "NC",
      "coordinates": {
        "latitude": 35.3041,
        "longitude": -80.7299
      }
    },
    {
      "school": "Stetson",
      "conference": "ASUN",
      "arena": "Edmunds Center",
      "city": "DeLand",
      "state": "FL",
      "coordinates": {
        "latitude": 29.0332,
        "longitude": -81.3026
      }
    },
    {
      "school": "West Georgia",
      "conference": "ASUN",
      "arena": "The Coliseum",
      "city": "Carrollton",
      "state": "GA",
      "coordinates": {
        "latitude": 33.5828,
        "longitude": -85.0747
      }
    },
    {
      "school": "Davidson",
      "conference": "Atlantic 10",
      "arena": "John M. Belk Arena",
      "city": "Davidson",
      "state": "NC",
      "coordinates": {
        "latitude": 35.498,
        "longitude": -80.8482
      }
    },
    {
      "school": "Dayton",
      "conference": "Atlantic 10",
      "arena": "UD Arena",
      "city": "Dayton",
      "state": "OH",
      "coordinates": {
        "latitude": 39.7617,
        "longitude": -84.1899
      }
    },
    {
      "school": "Duquesne",
      "conference": "Atlantic 10",
      "arena": "UPMC Cooper Fieldhouse",
      "city": "Pittsburgh",
      "state": "PA",
      "coordinates": {
        "latitude": 40.4445,
        "longitude": -79.963
      }
    },
    {
      "school": "Fordham",
      "conference": "Atlantic 10",
      "arena": "Rose Hill Gymnasium",
      "city": "Bronx",
      "state": "NY",
      "coordinates": {
        "latitude": 40.8618,
        "longitude": -73.8851
      }
    },
    {
      "school": "George Mason",
      "conference": "Atlantic 10",
      "arena": "EagleBank Arena",
      "city": "Fairfax",
      "state": "VA",
      "coordinates": {
        "latitude": 38.8306,
        "longitude": -77.3094
      }
    },
    {
      "school": "George Washington",
      "conference": "Atlantic 10",
      "arena": "Charles E. Smith Center",
      "city": "Washington",
      "state": "DC",
      "coordinates": {
        "latitude": 38.8997,
        "longitude": -77.0493
      }
    },
    {
      "school": "La Salle",
      "conference": "Atlantic 10",
      "arena": "Tom Gola Arena",
      "city": "Philadelphia",
      "state": "PA",
      "coordinates": {
        "latitude": 40.0278,
        "longitude": -75.151
      }
    },
    {
      "school": "Massachusetts",
      "conference": "Atlantic 10",
      "arena": "Mullins Center",
      "city": "Amherst",
      "state": "MA",
      "coordinates": {
        "latitude": 42.3877,
        "longitude": -72.5284
      }
    },
    {
      "school": "Rhode Island",
      "conference": "Atlantic 10",
      "arena": "Ryan Center",
      "city": "Kingston",
      "state": "RI",
      "coordinates": {
        "latitude": 41.484,
        "longitude": -71.5277
      }
    },
    {
      "school": "Saint Joseph's",
      "conference": "Atlantic 10",
      "arena": "Hagan Arena",
      "city": "Philadelphia",
      "state": "PA",
      "coordinates": {
        "latitude": 39.9981,
        "longitude": -75.2301
      }
    },
    {
      "school": "Saint Louis",
      "conference": "Atlantic 10",
      "arena": "Chaifetz Arena",
      "city": "St. Louis",
      "state": "MO",
      "coordinates": {
        "latitude": 38.6358,
        "longitude": -90.2307
      }
    },
    {
      "school": "St. Bonaventure",
      "conference": "Atlantic 10",
      "arena": "Reilly Center",
      "city": "St. Bonaventure",
      "state": "NY",
      "coordinates": {
        "latitude": 42.0789,
        "longitude": -78.4775
      }
    },
    {
      "school": "VCU",
      "conference": "Atlantic 10",
      "arena": "Stuart C. Siegel Center",
      "city": "Richmond",
      "state": "VA",
      "coordinates": {
        "latitude": 37.5479,
        "longitude": -77.4528
      }
    },
    {
      "school": "Arizona",
      "conference": "Big 12",
      "arena": "McKale Center",
      "city": "Tucson",
      "state": "AZ",
      "coordinates": {
        "latitude": 32.2306,
        "longitude": -110.9501
      }
    },
    {
      "school": "Arizona State",
      "conference": "Big 12",
      "arena": "Desert Financial Arena",
      "city": "Tempe",
      "state": "AZ",
      "coordinates": {
        "latitude": 33.4265,
        "longitude": -111.9312
      }
    },
    {
      "school": "Baylor",
      "conference": "Big 12",
      "arena": "Foster Pavilion",
      "city": "Waco",
      "state": "TX",
      "coordinates": {
        "latitude": 31.5484,
        "longitude": -97.1147
      }
    },
    {
      "school": "BYU",
      "conference": "Big 12",
      "arena": "Marriott Center",
      "city": "Provo",
      "state": "UT",
      "coordinates": {
        "latitude": 40.2566,
        "longitude": -111.6511
      }
    },
    {
      "school": "Cincinnati",
      "conference": "Big 12",
      "arena": "Fifth Third Arena",
      "city": "Cincinnati",
      "state": "OH",
      "coordinates": {
        "latitude": 39.1293,
        "longitude": -84.5156
      }
    },
    {
      "school": "Colorado",
      "conference": "Big 12",
      "arena": "CU Events Center",
      "city": "Boulder",
      "state": "CO",
      "coordinates": {
        "latitude": 40.0076,
        "longitude": -105.2659
      }
    },
    {
      "school": "Houston",
      "conference": "Big 12",
      "arena": "Fertitta Center",
      "city": "Houston",
      "state": "TX",
      "coordinates": {
        "latitude": 29.7201,
        "longitude": -95.3413
      }
    },
    {
      "school": "Iowa State",
      "conference": "Big 12",
      "arena": "Hilton Coliseum",
      "city": "Ames",
      "state": "IA",
      "coordinates": {
        "latitude": 42.0141,
        "longitude": -93.6358
      }
    },
    {
      "school": "Kansas",
      "conference": "Big 12",
      "arena": "Allen Fieldhouse",
      "city": "Lawrence",
      "state": "KS",
      "coordinates": {
        "latitude": 38.9554,
        "longitude": -95.2525
      }
    },
    {
      "school": "Kansas State",
      "conference": "Big 12",
      "arena": "Bramlage Coliseum",
      "city": "Manhattan",
      "state": "KS",
      "coordinates": {
        "latitude": 39.2014,
        "longitude": -96.5948
      }
    },
    {
      "school": "Oklahoma State",
      "conference": "Big 12",
      "arena": "Gallagher-Iba Arena",
      "city": "Stillwater",
      "state": "OK",
      "coordinates": {
        "latitude": 36.1276,
        "longitude": -97.0681
      }
    },
    {
      "school": "TCU",
      "conference": "Big 12",
      "arena": "Schollmaier Arena",
      "city": "Fort Worth",
      "state": "TX",
      "coordinates": {
        "latitude": 32.7097,
        "longitude": -97.3679
      }
    },
    {
      "school": "Texas Tech",
      "conference": "Big 12",
      "arena": "United Supermarkets Arena",
      "city": "Lubbock",
      "state": "TX",
      "coordinates": {
        "latitude": 33.5861,
        "longitude": -101.8743
      }
    },
    {
      "school": "Utah",
      "conference": "Big 12",
      "arena": "Jon M. Huntsman Center",
      "city": "Salt Lake City",
      "state": "UT",
      "coordinates": {
        "latitude": 40.7616,
        "longitude": -111.8464
      }
    },
    {
      "school": "West Virginia",
      "conference": "Big 12",
      "arena": "WVU Coliseum",
      "city": "Morgantown",
      "state": "WV",
      "coordinates": {
        "latitude": 39.6489,
        "longitude": -79.9671
      }
    },
    {
      "school": "Butler",
      "conference": "Big East",
      "arena": "Hinkle Fieldhouse",
      "city": "Indianapolis",
      "state": "IN",
      "coordinates": {
        "latitude": 39.8397,
        "longitude": -86.1666
      }
    },
    {
      "school": "Connecticut",
      "conference": "Big East",
      "arena": "Gampel Pavilion",
      "city": "Storrs",
      "state": "CT",
      "coordinates": {
        "latitude": 41.8082,
        "longitude": -72.2496
      }
    },
    {
      "school": "Creighton",
      "conference": "Big East",
      "arena": "CHI Health Center Omaha",
      "city": "Omaha",
      "state": "NE",
      "coordinates": {
        "latitude": 41.2565,
        "longitude": -95.9345
      }
    },
    {
      "school": "DePaul",
      "conference": "Big East",
      "arena": "Wintrust Arena",
      "city": "Chicago",
      "state": "IL",
      "coordinates": {
        "latitude": 41.8537,
        "longitude": -87.6214
      }
    },
    {
      "school": "Georgetown",
      "conference": "Big East",
      "arena": "Capital One Arena",
      "city": "Washington",
      "state": "DC",
      "coordinates": {
        "latitude": 38.8981,
        "longitude": -77.0209
      }
    },
    {
      "school": "Marquette",
      "conference": "Big East",
      "arena": "Fiserv Forum",
      "city": "Milwaukee",
      "state": "WI",
      "coordinates": {
        "latitude": 43.0451,
        "longitude": -87.917
      }
    },
    {
      "school": "Providence",
      "conference": "Big East",
      "arena": "Amica Mutual Pavilion",
      "city": "Providence",
      "state": "RI",
      "coordinates": {
        "latitude": 41.8232,
        "longitude": -71.4152
      }
    },
    {
      "school": "Seton Hall",
      "conference": "Big East",
      "arena": "Prudential Center",
      "city": "Newark",
      "state": "NJ",
      "coordinates": {
        "latitude": 40.7337,
        "longitude": -74.1713
      }
    },
    {
      "school": "St. John's",
      "conference": "Big East",
      "arena": "Madison Square Garden",
      "city": "New York",
      "state": "NY",
      "coordinates": {
        "latitude": 40.7505,
        "longitude": -73.9934
      }
    },
    {
      "school": "Villanova",
      "conference": "Big East",
      "arena": "Finneran Pavilion",
      "city": "Villanova",
      "state": "PA",
      "coordinates": {
        "latitude": 40.0368,
        "longitude": -75.3442
      }
    },
    {
      "school": "Xavier",
      "conference": "Big East",
      "arena": "Cintas Center",
      "city": "Cincinnati",
      "state": "OH",
      "coordinates": {
        "latitude": 39.1553,
        "longitude": -84.4716
      }
    },
    {
      "school": "Eastern Washington",
      "conference": "Big Sky",
      "arena": "Reese Court",
      "city": "Cheney",
      "state": "WA",
      "coordinates": {
        "latitude": 47.4882,
        "longitude": -117.5786
      }
    },
    {
      "school": "Idaho",
      "conference": "Big Sky",
      "arena": "ICCU Arena",
      "city": "Moscow",
      "state": "ID",
      "coordinates": {
        "latitude": 46.728,
        "longitude": -117.0101
      }
    },
    {
      "school": "Idaho State",
      "conference": "Big Sky",
      "arena": "Holt Arena",
      "city": "Pocatello",
      "state": "ID",
      "coordinates": {
        "latitude": 42.8567,
        "longitude": -112.4285
      }
    },
    {
      "school": "Montana",
      "conference": "Big Sky",
      "arena": "Adams Center",
      "city": "Missoula",
      "state": "MT",
      "coordinates": {
        "latitude": 46.8617,
        "longitude": -114.0109
      }
    },
    {
      "school": "Montana State",
      "conference": "Big Sky",
      "arena": "Brick Breeden Fieldhouse",
      "city": "Bozeman",
      "state": "MT",
      "coordinates": {
        "latitude": 45.6683,
        "longitude": -111.0458
      }
    },
    {
      "school": "Northern Arizona",
      "conference": "Big Sky",
      "arena": "Walkup Skydome",
      "city": "Flagstaff",
      "state": "AZ",
      "coordinates": {
        "latitude": 35.1855,
        "longitude": -111.6537
      }
    },
    {
      "school": "Northern Colorado",
      "conference": "Big Sky",
      "arena": "Bank of Colorado Arena",
      "city": "Greeley",
      "state": "CO",
      "coordinates": {
        "latitude": 40.4049,
        "longitude": -104.6948
      }
    },
    {
      "school": "Portland State",
      "conference": "Big Sky",
      "arena": "Stott Center",
      "city": "Portland",
      "state": "OR",
      "coordinates": {
        "latitude": 45.5118,
        "longitude": -122.6855
      }
    },
    {
      "school": "Weber State",
      "conference": "Big Sky",
      "arena": "Dee Events Center",
      "city": "Ogden",
      "state": "UT",
      "coordinates": {
        "latitude": 41.2225,
        "longitude": -111.9738
      }
    },
    {
      "school": "Campbell",
      "conference": "Big South",
      "arena": "Carter Gymnasium",
      "city": "Buies Creek",
      "state": "NC",
      "coordinates": {
        "latitude": 35.3916,
        "longitude": -78.7337
      }
    },
    {
      "school": "Charleston Southern",
      "conference": "Big South",
      "arena": "Buc Arena",
      "city": "North Charleston",
      "state": "SC",
      "coordinates": {
        "latitude": 32.9181,
        "longitude": -80.0434
      }
    },
    {
      "school": "Gardner-Webb",
      "conference": "Big South",
      "arena": "Paul Porter Arena",
      "city": "Boiling Springs",
      "state": "NC",
      "coordinates": {
        "latitude": 35.2407,
        "longitude": -81.6642
      }
    },
    {
      "school": "High Point",
      "conference": "Big South",
      "arena": "Qubein Arena",
      "city": "High Point",
      "state": "NC",
      "coordinates": {
        "latitude": 35.9552,
        "longitude": -79.9961
      }
    },
    {
      "school": "Longwood",
      "conference": "Big South",
      "arena": "Joan Perry Brock Center",
      "city": "Farmville",
      "state": "VA",
      "coordinates": {
        "latitude": 37.3011,
        "longitude": -78.3972
      }
    },
    {
      "school": "Presbyterian",
      "conference": "Big South",
      "arena": "Templeton Center",
      "city": "Clinton",
      "state": "SC",
      "coordinates": {
        "latitude": 34.4748,
        "longitude": -81.8693
      }
    },
    {
      "school": "Radford",
      "conference": "Big South",
      "arena": "Dedmon Center",
      "city": "Radford",
      "state": "VA",
      "coordinates": {
        "latitude": 37.132,
        "longitude": -80.567
      }
    },
    {
      "school": "South Carolina Upstate",
      "conference": "Big South",
      "arena": "Greenville Convention Center",
      "city": "Greenville",
      "state": "SC",
      "coordinates": {
        "latitude": 34.8495,
        "longitude": -82.4014
      }
    },
    {
      "school": "UNC Asheville",
      "conference": "Big South",
      "arena": "Kimmel Arena",
      "city": "Asheville",
      "state": "NC",
      "coordinates": {
        "latitude": 35.5852,
        "longitude": -82.5648
      }
    },
    {
      "school": "Illinois",
      "conference": "Big Ten",
      "arena": "State Farm Center",
      "city": "Champaign",
      "state": "IL",
      "coordinates": {
        "latitude": 40.0963,
        "longitude": -88.2715
      }
    },
    {
      "school": "Indiana",
      "conference": "Big Ten",
      "arena": "Simon Skjodt Assembly Hall",
      "city": "Bloomington",
      "state": "IN",
      "coordinates": {
        "latitude": 39.1772,
        "longitude": -86.5234
      }
    },
    {
      "school": "Iowa",
      "conference": "Big Ten",
      "arena": "Carver-Hawkeye Arena",
      "city": "Iowa City",
      "state": "IA",
      "coordinates": {
        "latitude": 41.6573,
        "longitude": -91.5504
      }
    },
    {
      "school": "Maryland",
      "conference": "Big Ten",
      "arena": "Xfinity Center",
      "city": "College Park",
      "state": "MD",
      "coordinates": {
        "latitude": 38.9931,
        "longitude": -76.9424
      }
    },
    {
      "school": "Michigan",
      "conference": "Big Ten",
      "arena": "Crisler Center",
      "city": "Ann Arbor",
      "state": "MI",
      "coordinates": {
        "latitude": 42.278,
        "longitude": -83.7483
      }
    },
    {
      "school": "Michigan State",
      "conference": "Big Ten",
      "arena": "Breslin Student Events Center",
      "city": "East Lansing",
      "state": "MI",
      "coordinates": {
        "latitude": 42.7252,
        "longitude": -84.4871
      }
    },
    {
      "school": "Minnesota",
      "conference": "Big Ten",
      "arena": "Williams Arena",
      "city": "Minneapolis",
      "state": "MN",
      "coordinates": {
        "latitude": 44.9741,
        "longitude": -93.2229
      }
    },
    {
      "school": "Nebraska",
      "conference": "Big Ten",
      "arena": "Pinnacle Bank Arena",
      "city": "Lincoln",
      "state": "NE",
      "coordinates": {
        "latitude": 40.8025,
        "longitude": -96.7137
      }
    },
    {
      "school": "Northwestern",
      "conference": "Big Ten",
      "arena": "Welsh-Ryan Arena",
      "city": "Evanston",
      "state": "IL",
      "coordinates": {
        "latitude": 42.0626,
        "longitude": -87.678
      }
    },
    {
      "school": "Ohio State",
      "conference": "Big Ten",
      "arena": "Value City Arena",
      "city": "Columbus",
      "state": "OH",
      "coordinates": {
        "latitude": 39.9957,
        "longitude": -83.0154
      }
    },
    {
      "school": "Oregon",
      "conference": "Big Ten",
      "arena": "Matthew Knight Arena",
      "city": "Eugene",
      "state": "OR",
      "coordinates": {
        "latitude": 44.0462,
        "longitude": -123.0698
      }
    },
    {
      "school": "Penn State",
      "conference": "Big Ten",
      "arena": "Bryce Jordan Center",
      "city": "University Park",
      "state": "PA",
      "coordinates": {
        "latitude": 40.7969,
        "longitude": -77.8648
      }
    },
    {
      "school": "Purdue",
      "conference": "Big Ten",
      "arena": "Mackey Arena",
      "city": "West Lafayette",
      "state": "IN",
      "coordinates": {
        "latitude": 40.4259,
        "longitude": -86.9202
      }
    },
    {
      "school": "Rutgers",
      "conference": "Big Ten",
      "arena": "Jersey Mike's Arena",
      "city": "Piscataway",
      "state": "NJ",
      "coordinates": {
        "latitude": 40.5197,
        "longitude": -74.4349
      }
    },
    {
      "school": "UCLA",
      "conference": "Big Ten",
      "arena": "Pauley Pavilion",
      "city": "Los Angeles",
      "state": "CA",
      "coordinates": {
        "latitude": 34.07,
        "longitude": -118.4445
      }
    },
    {
      "school": "USC",
      "conference": "Big Ten",
      "arena": "Galen Center",
      "city": "Los Angeles",
      "state": "CA",
      "coordinates": {
        "latitude": 34.0228,
        "longitude": -118.2851
      }
    },
    {
      "school": "Wisconsin",
      "conference": "Big Ten",
      "arena": "Kohl Center",
      "city": "Madison",
      "state": "WI",
      "coordinates": {
        "latitude": 43.0731,
        "longitude": -89.4125
      }
    },
    {
      "school": "Cal Poly",
      "conference": "Big West",
      "arena": "Mott Athletics Center",
      "city": "San Luis Obispo",
      "state": "CA",
      "coordinates": {
        "latitude": 35.3001,
        "longitude": -120.6619
      }
    },
    {
      "school": "Cal State Bakersfield",
      "conference": "Big West",
      "arena": "Mechanics Bank Arena",
      "city": "Bakersfield",
      "state": "CA",
      "coordinates": {
        "latitude": 35.3733,
        "longitude": -119.0187
      }
    },
    {
      "school": "Cal State Fullerton",
      "conference": "Big West",
      "arena": "Titan Gym",
      "city": "Fullerton",
      "state": "CA",
      "coordinates": {
        "latitude": 33.8835,
        "longitude": -117.8857
      }
    },
    {
      "school": "Cal State Northridge",
      "conference": "Big West",
      "arena": "Matadome",
      "city": "Northridge",
      "state": "CA",
      "coordinates": {
        "latitude": 34.2414,
        "longitude": -118.5296
      }
    },
    {
      "school": "Hawaii",
      "conference": "Big West",
      "arena": "SimpliFi Arena at Stan Sheriff Center",
      "city": "Honolulu",
      "state": "HI",
      "coordinates": {
        "latitude": 21.3,
        "longitude": -157.8152
      }
    },
    {
      "school": "Long Beach State",
      "conference": "Big West",
      "arena": "Walter Pyramid",
      "city": "Long Beach",
      "state": "CA",
      "coordinates": {
        "latitude": 33.7839,
        "longitude": -118.1141
      }
    },
    {
      "school": "UC Davis",
      "conference": "Big West",
      "arena": "UC Davis Activities and Recreation Center",
      "city": "Davis",
      "state": "CA",
      "coordinates": {
        "latitude": 38.5437,
        "longitude": -121.7493
      }
    },
    {
      "school": "UC Irvine",
      "conference": "Big West",
      "arena": "Bren Events Center",
      "city": "Irvine",
      "state": "CA",
      "coordinates": {
        "latitude": 33.6473,
        "longitude": -117.8428
      }
    },
    {
      "school": "UC Riverside",
      "conference": "Big West",
      "arena": "SRC Arena and Events Center",
      "city": "Riverside",
      "state": "CA",
      "coordinates": {
        "latitude": 33.9731,
        "longitude": -117.328
      }
    },
    {
      "school": "UC San Diego",
      "conference": "Big West",
      "arena": "RIMAC Arena",
      "city": "La Jolla",
      "state": "CA",
      "coordinates": {
        "latitude": 32.8869,
        "longitude": -117.2364
      }
    },
    {
      "school": "UC Santa Barbara",
      "conference": "Big West",
      "arena": "Thunderdome",
      "city": "Santa Barbara",
      "state": "CA",
      "coordinates": {
        "latitude": 34.4125,
        "longitude": -119.8489
      }
    },
    {
      "school": "Delaware",
      "conference": "CAA",
      "arena": "Bob Carpenter Center",
      "city": "Newark",
      "state": "DE",
      "coordinates": {
        "latitude": 39.6787,
        "longitude": -75.7514
      }
    },
    {
      "school": "Drexel",
      "conference": "CAA",
      "arena": "DAC Athletic Facility",
      "city": "Philadelphia",
      "state": "PA",
      "coordinates": {
        "latitude": 39.9566,
        "longitude": -75.1893
      }
    },
    {
      "school": "Elon",
      "conference": "CAA",
      "arena": "Schar Center",
      "city": "Elon",
      "state": "NC",
      "coordinates": {
        "latitude": 36.1014,
        "longitude": -79.5063
      }
    },
    {
      "school": "Hampton",
      "conference": "CAA",
      "arena": "Hampton Convocation Center",
      "city": "Hampton",
      "state": "VA",
      "coordinates": {
        "latitude": 37.0347,
        "longitude": -76.3452
      }
    },
    {
      "school": "Hofstra",
      "conference": "CAA",
      "arena": "David S. Mack Sports and Exhibition Complex",
      "city": "Hempstead",
      "state": "NY",
      "coordinates": {
        "latitude": 40.7168,
        "longitude": -73.598
      }
    },
    {
      "school": "Monmouth",
      "conference": "CAA",
      "arena": "OceanFirst Bank Center",
      "city": "West Long Branch",
      "state": "NJ",
      "coordinates": {
        "latitude": 40.3051,
        "longitude": -74.0175
      }
    },
    {
      "school": "NC A&T",
      "conference": "CAA",
      "arena": "Corbett Sports Center",
      "city": "Greensboro",
      "state": "NC",
      "coordinates": {
        "latitude": 36.0706,
        "longitude": -79.7703
      }
    },
    {
      "school": "Northeastern",
      "conference": "CAA",
      "arena": "Cabot Center",
      "city": "Boston",
      "state": "MA",
      "coordinates": {
        "latitude": 42.3394,
        "longitude": -71.0892
      }
    },
    {
      "school": "Stony Brook",
      "conference": "CAA",
      "arena": "Island Federal Arena",
      "city": "Stony Brook",
      "state": "NY",
      "coordinates": {
        "latitude": 40.9196,
        "longitude": -73.1241
      }
    },
    {
      "school": "Towson",
      "conference": "CAA",
      "arena": "SECU Arena",
      "city": "Towson",
      "state": "MD",
      "coordinates": {
        "latitude": 39.4042,
        "longitude": -76.6013
      }
    },
    {
      "school": "UNC Wilmington",
      "conference": "CAA",
      "arena": "Trask Coliseum",
      "city": "Wilmington",
      "state": "NC",
      "coordinates": {
        "latitude": 34.2257,
        "longitude": -77.8718
      }
    },
    {
      "school": "William & Mary",
      "conference": "CAA",
      "arena": "Kaplan Arena",
      "city": "Williamsburg",
      "state": "VA",
      "coordinates": {
        "latitude": 37.2707,
        "longitude": -76.7165
      }
    },
    {
      "school": "FIU",
      "conference": "Conference USA",
      "arena": "Ocean Bank Convocation Center",
      "city": "Miami",
      "state": "FL",
      "coordinates": {
        "latitude": 25.7578,
        "longitude": -80.3741
      }
    },
    {
      "school": "Jacksonville State",
      "conference": "Conference USA",
      "arena": "Pete Mathews Coliseum",
      "city": "Jacksonville",
      "state": "AL",
      "coordinates": {
        "latitude": 33.8292,
        "longitude": -85.763
      }
    },
    {
      "school": "Louisiana Tech",
      "conference": "Conference USA",
      "arena": "Thomas Assembly Center",
      "city": "Ruston",
      "state": "LA",
      "coordinates": {
        "latitude": 32.5339,
        "longitude": -92.6387
      }
    },
    {
      "school": "Middle Tennessee",
      "conference": "Conference USA",
      "arena": "Murphy Center",
      "city": "Murfreesboro",
      "state": "TN",
      "coordinates": {
        "latitude": 35.8486,
        "longitude": -86.3631
      }
    },
    {
      "school": "New Mexico State",
      "conference": "Conference USA",
      "arena": "Pan American Center",
      "city": "Las Cruces",
      "state": "NM",
      "coordinates": {
        "latitude": 32.2803,
        "longitude": -106.7497
      }
    },
    {
      "school": "Sam Houston",
      "conference": "Conference USA",
      "arena": "Johnson Coliseum",
      "city": "Huntsville",
      "state": "TX",
      "coordinates": {
        "latitude": 30.7219,
        "longitude": -95.546
      }
    },
    {
      "school": "Western Kentucky",
      "conference": "Conference USA",
      "arena": "E.A. Diddle Arena",
      "city": "Bowling Green",
      "state": "KY",
      "coordinates": {
        "latitude": 36.9861,
        "longitude": -86.4538
      }
    },
    {
      "school": "Cleveland State",
      "conference": "Horizon League",
      "arena": "Wolstein Center",
      "city": "Cleveland",
      "state": "OH",
      "coordinates": {
        "latitude": 41.5036,
        "longitude": -81.6786
      }
    },
    {
      "school": "Detroit Mercy",
      "conference": "Horizon League",
      "arena": "Calihan Hall",
      "city": "Detroit",
      "state": "MI",
      "coordinates": {
        "latitude": 42.4007,
        "longitude": -83.1372
      }
    },
    {
      "school": "Green Bay",
      "conference": "Horizon League",
      "arena": "Resch Center",
      "city": "Green Bay",
      "state": "WI",
      "coordinates": {
        "latitude": 44.4958,
        "longitude": -88.0626
      }
    },
    {
      "school": "IU Indy",
      "conference": "Horizon League",
      "arena": "Screaming Eagles Arena",
      "city": "Indianapolis",
      "state": "IN",
      "coordinates": {
        "latitude": 39.7748,
        "longitude": -86.1741
      }
    },
    {
      "school": "Milwaukee",
      "conference": "Horizon League",
      "arena": "UW-Milwaukee Panther Arena",
      "city": "Milwaukee",
      "state": "WI",
      "coordinates": {
        "latitude": 43.0379,
        "longitude": -87.9098
      }
    },
    {
      "school": "Northern Illinois",
      "conference": "Horizon League",
      "arena": "Convocation Center",
      "city": "DeKalb",
      "state": "IL",
      "coordinates": {
        "latitude": 41.9289,
        "longitude": -88.7736
      }
    },
    {
      "school": "Oakland",
      "conference": "Horizon League",
      "arena": "Gerstacker Arena",
      "city": "Rochester",
      "state": "MI",
      "coordinates": {
        "latitude": 42.6716,
        "longitude": -83.2091
      }
    },
    {
      "school": "Purdue Fort Wayne",
      "conference": "Horizon League",
      "arena": "Memorial Coliseum",
      "city": "Fort Wayne",
      "state": "IN",
      "coordinates": {
        "latitude": 41.0784,
        "longitude": -85.1394
      }
    },
    {
      "school": "Robert Morris",
      "conference": "Horizon League",
      "arena": "UPMC Events Center",
      "city": "Moon Township",
      "state": "PA",
      "coordinates": {
        "latitude": 40.5196,
        "longitude": -80.2175
      }
    },
    {
      "school": "Wright State",
      "conference": "Horizon League",
      "arena": "Nutter Center",
      "city": "Dayton",
      "state": "OH",
      "coordinates": {
        "latitude": 39.7846,
        "longitude": -84.0598
      }
    },
    {
      "school": "Youngstown State",
      "conference": "Horizon League",
      "arena": "Beeghly Center",
      "city": "Youngstown",
      "state": "OH",
      "coordinates": {
        "latitude": 41.1006,
        "longitude": -80.6433
      }
    },
    {
      "school": "Brown",
      "conference": "Ivy League",
      "arena": "Pizzitola Sports Center",
      "city": "Providence",
      "state": "RI",
      "coordinates": {
        "latitude": 41.8268,
        "longitude": -71.4025
      }
    },
    {
      "school": "Columbia",
      "conference": "Ivy League",
      "arena": "Levien Gymnasium",
      "city": "New York",
      "state": "NY",
      "coordinates": {
        "latitude": 40.8075,
        "longitude": -73.9626
      }
    },
    {
      "school": "Cornell",
      "conference": "Ivy League",
      "arena": "Newman Arena",
      "city": "Ithaca",
      "state": "NY",
      "coordinates": {
        "latitude": 42.4505,
        "longitude": -76.4834
      }
    },
    {
      "school": "Dartmouth",
      "conference": "Ivy League",
      "arena": "Leede Arena",
      "city": "Hanover",
      "state": "NH",
      "coordinates": {
        "latitude": 43.7044,
        "longitude": -72.2887
      }
    },
    {
      "school": "Harvard",
      "conference": "Ivy League",
      "arena": "Lavietes Pavilion",
      "city": "Boston",
      "state": "MA",
      "coordinates": {
        "latitude": 42.3637,
        "longitude": -71.1253
      }
    },
    {
      "school": "Penn",
      "conference": "Ivy League",
      "arena": "Palestra",
      "city": "Philadelphia",
      "state": "PA",
      "coordinates": {
        "latitude": 39.9525,
        "longitude": -75.193
      }
    },
    {
      "school": "Princeton",
      "conference": "Ivy League",
      "arena": "Jadwin Gymnasium",
      "city": "Princeton",
      "state": "NJ",
      "coordinates": {
        "latitude": 40.3459,
        "longitude": -74.6535
      }
    },
    {
      "school": "Yale",
      "conference": "Ivy League",
      "arena": "Lee Amphitheater",
      "city": "New Haven",
      "state": "CT",
      "coordinates": {
        "latitude": 41.3163,
        "longitude": -72.9223
      }
    },
    {
      "school": "Canisius",
      "conference": "MAAC",
      "arena": "Koessler Athletic Center",
      "city": "Buffalo",
      "state": "NY",
      "coordinates": {
        "latitude": 42.9338,
        "longitude": -78.8198
      }
    },
    {
      "school": "Fairfield",
      "conference": "MAAC",
      "arena": "Webster Bank Arena",
      "city": "Bridgeport",
      "state": "CT",
      "coordinates": {
        "latitude": 41.1797,
        "longitude": -73.1893
      }
    },
    {
      "school": "Iona",
      "conference": "MAAC",
      "arena": "Hynes Athletics Center",
      "city": "New Rochelle",
      "state": "NY",
      "coordinates": {
        "latitude": 40.9195,
        "longitude": -73.7942
      }
    },
    {
      "school": "Manhattan",
      "conference": "MAAC",
      "arena": "Draddy Gymnasium",
      "city": "Riverdale",
      "state": "NY",
      "coordinates": {
        "latitude": 40.869,
        "longitude": -73.9016
      }
    },
    {
      "school": "Marist",
      "conference": "MAAC",
      "arena": "McCann Center",
      "city": "Poughkeepsie",
      "state": "NY",
      "coordinates": {
        "latitude": 41.7107,
        "longitude": -73.928
      }
    },
    {
      "school": "Merrimack",
      "conference": "MAAC",
      "arena": "Merrimack Athletic Center",
      "city": "North Andover",
      "state": "MA",
      "coordinates": {
        "latitude": 42.6913,
        "longitude": -71.3436
      }
    },
    {
      "school": "Mount St. Mary's",
      "conference": "MAAC",
      "arena": "Knott Arena",
      "city": "Emmitsburg",
      "state": "MD",
      "coordinates": {
        "latitude": 39.707,
        "longitude": -77.3258
      }
    },
    {
      "school": "Niagara",
      "conference": "MAAC",
      "arena": "Gallagher Center",
      "city": "Niagara Falls",
      "state": "NY",
      "coordinates": {
        "latitude": 43.1028,
        "longitude": -79.0584
      }
    },
    {
      "school": "Quinnipiac",
      "conference": "MAAC",
      "arena": "People's United Center",
      "city": "Hamden",
      "state": "CT",
      "coordinates": {
        "latitude": 41.419,
        "longitude": -72.8932
      }
    },
    {
      "school": "Rider",
      "conference": "MAAC",
      "arena": "Alumni Gymnasium",
      "city": "Lawrenceville",
      "state": "NJ",
      "coordinates": {
        "latitude": 40.2969,
        "longitude": -74.7372
      }
    },
    {
      "school": "Saint Francis (BKN)",
      "conference": "MAAC",
      "arena": "Pope Physical Education Center",
      "city": "Brooklyn",
      "state": "NY",
      "coordinates": {
        "latitude": 40.6962,
        "longitude": -73.9937
      }
    },
    {
      "school": "Saint Peter's",
      "conference": "MAAC",
      "arena": "Yanitelli Center",
      "city": "Jersey City",
      "state": "NJ",
      "coordinates": {
        "latitude": 40.7441,
        "longitude": -74.0491
      }
    },
    {
      "school": "Siena",
      "conference": "MAAC",
      "arena": "MVP Arena",
      "city": "Albany",
      "state": "NY",
      "coordinates": {
        "latitude": 42.6586,
        "longitude": -73.7742
      }
    },
    {
      "school": "Akron",
      "conference": "MAC",
      "arena": "James A. Rhodes Arena",
      "city": "Akron",
      "state": "OH",
      "coordinates": {
        "latitude": 41.0756,
        "longitude": -81.5127
      }
    },
    {
      "school": "Ball State",
      "conference": "MAC",
      "arena": "Worthen Arena",
      "city": "Muncie",
      "state": "IN",
      "coordinates": {
        "latitude": 40.1977,
        "longitude": -85.4124
      }
    },
    {
      "school": "Bowling Green",
      "conference": "MAC",
      "arena": "Stroh Center",
      "city": "Bowling Green",
      "state": "OH",
      "coordinates": {
        "latitude": 41.378,
        "longitude": -83.6422
      }
    },
    {
      "school": "Buffalo",
      "conference": "MAC",
      "arena": "Alumni Arena",
      "city": "Buffalo",
      "state": "NY",
      "coordinates": {
        "latitude": 42.9483,
        "longitude": -78.8134
      }
    },
    {
      "school": "Central Michigan",
      "conference": "MAC",
      "arena": "McGuirk Arena",
      "city": "Mount Pleasant",
      "state": "MI",
      "coordinates": {
        "latitude": 43.599,
        "longitude": -84.7752
      }
    },
    {
      "school": "Eastern Michigan",
      "conference": "MAC",
      "arena": "Convocation Center",
      "city": "Ypsilanti",
      "state": "MI",
      "coordinates": {
        "latitude": 42.2519,
        "longitude": -83.6323
      }
    },
    {
      "school": "Kent State",
      "conference": "MAC",
      "arena": "Memorial Athletic and Convocation Center",
      "city": "Kent",
      "state": "OH",
      "coordinates": {
        "latitude": 41.1549,
        "longitude": -81.3457
      }
    },
    {
      "school": "Miami (OH)",
      "conference": "MAC",
      "arena": "Millett Hall",
      "city": "Oxford",
      "state": "OH",
      "coordinates": {
        "latitude": 39.5133,
        "longitude": -84.7351
      }
    },
    {
      "school": "Ohio",
      "conference": "MAC",
      "arena": "Convocation Center",
      "city": "Athens",
      "state": "OH",
      "coordinates": {
        "latitude": 39.3228,
        "longitude": -82.1046
      }
    },
    {
      "school": "Toledo",
      "conference": "MAC",
      "arena": "Savage Arena",
      "city": "Toledo",
      "state": "OH",
      "coordinates": {
        "latitude": 41.6637,
        "longitude": -83.6097
      }
    },
    {
      "school": "Western Michigan",
      "conference": "MAC",
      "arena": "University Arena",
      "city": "Kalamazoo",
      "state": "MI",
      "coordinates": {
        "latitude": 42.2837,
        "longitude": -85.6195
      }
    },
    {
      "school": "Bethune-Cookman",
      "conference": "MEAC",
      "arena": "Moore Gymnasium",
      "city": "Daytona Beach",
      "state": "FL",
      "coordinates": {
        "latitude": 29.2108,
        "longitude": -81.0215
      }
    },
    {
      "school": "Coppin State",
      "conference": "MEAC",
      "arena": "Physical Education Complex",
      "city": "Baltimore",
      "state": "MD",
      "coordinates": {
        "latitude": 39.3134,
        "longitude": -76.6685
      }
    },
    {
      "school": "Delaware State",
      "conference": "MEAC",
      "arena": "Memorial Hall",
      "city": "Dover",
      "state": "DE",
      "coordinates": {
        "latitude": 39.165,
        "longitude": -75.5228
      }
    },
    {
      "school": "Florida A&M",
      "conference": "MEAC",
      "arena": "Al Lawson Jr. Multipurpose Center",
      "city": "Tallahassee",
      "state": "FL",
      "coordinates": {
        "latitude": 30.4185,
        "longitude": -84.2976
      }
    },
    {
      "school": "Howard",
      "conference": "MEAC",
      "arena": "Burr Gymnasium",
      "city": "Washington",
      "state": "DC",
      "coordinates": {
        "latitude": 38.9222,
        "longitude": -77.0199
      }
    },
    {
      "school": "Maryland-Eastern Shore",
      "conference": "MEAC",
      "arena": "Tawes Gymnasium",
      "city": "Princess Anne",
      "state": "MD",
      "coordinates": {
        "latitude": 38.2029,
        "longitude": -75.6929
      }
    },
    {
      "school": "Morgan State",
      "conference": "MEAC",
      "arena": "Hill Field House",
      "city": "Baltimore",
      "state": "MD",
      "coordinates": {
        "latitude": 39.3432,
        "longitude": -76.5834
      }
    },
    {
      "school": "Norfolk State",
      "conference": "MEAC",
      "arena": "Joseph G. Echols Memorial Hall",
      "city": "Norfolk",
      "state": "VA",
      "coordinates": {
        "latitude": 36.8461,
        "longitude": -76.2694
      }
    },
    {
      "school": "North Carolina A&T",
      "conference": "MEAC",
      "arena": "Corbett Sports Center",
      "city": "Greensboro",
      "state": "NC",
      "coordinates": {
        "latitude": 36.0706,
        "longitude": -79.7703
      }
    },
    {
      "school": "North Carolina Central",
      "conference": "MEAC",
      "arena": "McDougald-McLendon Arena",
      "city": "Durham",
      "state": "NC",
      "coordinates": {
        "latitude": 35.976,
        "longitude": -78.9016
      }
    },
    {
      "school": "South Carolina State",
      "conference": "MEAC",
      "arena": "Smith-Hammond-Middleton Memorial Center",
      "city": "Orangeburg",
      "state": "SC",
      "coordinates": {
        "latitude": 33.4955,
        "longitude": -80.8644
      }
    },
    {
      "school": "Bradley",
      "conference": "Missouri Valley",
      "arena": "Carver Arena",
      "city": "Peoria",
      "state": "IL",
      "coordinates": {
        "latitude": 40.6944,
        "longitude": -89.589
      }
    },
    {
      "school": "Drake",
      "conference": "Missouri Valley",
      "arena": "Knapp Center",
      "city": "Des Moines",
      "state": "IA",
      "coordinates": {
        "latitude": 41.6022,
        "longitude": -93.6508
      }
    },
    {
      "school": "Evansville",
      "conference": "Missouri Valley",
      "arena": "Ford Center",
      "city": "Evansville",
      "state": "IN",
      "coordinates": {
        "latitude": 37.9712,
        "longitude": -87.5713
      }
    },
    {
      "school": "Illinois State",
      "conference": "Missouri Valley",
      "arena": "Redbird Arena",
      "city": "Normal",
      "state": "IL",
      "coordinates": {
        "latitude": 40.5127,
        "longitude": -88.9898
      }
    },
    {
      "school": "Indiana State",
      "conference": "Missouri Valley",
      "arena": "Hulman Center",
      "city": "Terre Haute",
      "state": "IN",
      "coordinates": {
        "latitude": 39.4689,
        "longitude": -87.4126
      }
    },
    {
      "school": "Missouri State",
      "conference": "Missouri Valley",
      "arena": "Great Southern Bank Arena",
      "city": "Springfield",
      "state": "MO",
      "coordinates": {
        "latitude": 37.1968,
        "longitude": -93.291
      }
    },
    {
      "school": "Murray State",
      "conference": "Missouri Valley",
      "arena": "CFSB Center",
      "city": "Murray",
      "state": "KY",
      "coordinates": {
        "latitude": 36.6097,
        "longitude": -88.3146
      }
    },
    {
      "school": "Northern Iowa",
      "conference": "Missouri Valley",
      "arena": "McLeod Center",
      "city": "Cedar Falls",
      "state": "IA",
      "coordinates": {
        "latitude": 42.5157,
        "longitude": -92.467
      }
    },
    {
      "school": "Southern Illinois",
      "conference": "Missouri Valley",
      "arena": "Banterra Center",
      "city": "Carbondale",
      "state": "IL",
      "coordinates": {
        "latitude": 37.7325,
        "longitude": -89.2149
      }
    },
    {
      "school": "UIC",
      "conference": "Missouri Valley",
      "arena": "Credit Union 1 Arena",
      "city": "Chicago",
      "state": "IL",
      "coordinates": {
        "latitude": 41.8711,
        "longitude": -87.6499
      }
    },
    {
      "school": "Valparaiso",
      "conference": "Missouri Valley",
      "arena": "Athletics-Recreation Center",
      "city": "Valparaiso",
      "state": "IN",
      "coordinates": {
        "latitude": 41.4613,
        "longitude": -87.0465
      }
    },
    {
      "school": "Air Force",
      "conference": "Mountain West",
      "arena": "Clune Arena",
      "city": "Colorado Springs",
      "state": "CO",
      "coordinates": {
        "latitude": 38.9976,
        "longitude": -104.8613
      }
    },
    {
      "school": "Boise State",
      "conference": "Mountain West",
      "arena": "ExtraMile Arena",
      "city": "Boise",
      "state": "ID",
      "coordinates": {
        "latitude": 43.6029,
        "longitude": -116.2
      }
    },
    {
      "school": "Colorado State",
      "conference": "Mountain West",
      "arena": "Moby Arena",
      "city": "Fort Collins",
      "state": "CO",
      "coordinates": {
        "latitude": 40.5757,
        "longitude": -105.0857
      }
    },
    {
      "school": "Fresno State",
      "conference": "Mountain West",
      "arena": "Save Mart Center",
      "city": "Fresno",
      "state": "CA",
      "coordinates": {
        "latitude": 36.8124,
        "longitude": -119.7469
      }
    },
    {
      "school": "Nevada",
      "conference": "Mountain West",
      "arena": "Lawlor Events Center",
      "city": "Reno",
      "state": "NV",
      "coordinates": {
        "latitude": 39.5413,
        "longitude": -119.8156
      }
    },
    {
      "school": "New Mexico",
      "conference": "Mountain West",
      "arena": "The Pit",
      "city": "Albuquerque",
      "state": "NM",
      "coordinates": {
        "latitude": 35.0663,
        "longitude": -106.6499
      }
    },
    {
      "school": "San Diego State",
      "conference": "Mountain West",
      "arena": "Viejas Arena",
      "city": "San Diego",
      "state": "CA",
      "coordinates": {
        "latitude": 32.776,
        "longitude": -117.0714
      }
    },
    {
      "school": "San Jose State",
      "conference": "Mountain West",
      "arena": "Provident Credit Union Event Center",
      "city": "San Jose",
      "state": "CA",
      "coordinates": {
        "latitude": 37.3329,
        "longitude": -121.9011
      }
    },
    {
      "school": "UNLV",
      "conference": "Mountain West",
      "arena": "Thomas & Mack Center",
      "city": "Las Vegas",
      "state": "NV",
      "coordinates": {
        "latitude": 36.1053,
        "longitude": -115.1424
      }
    },
    {
      "school": "Utah State",
      "conference": "Mountain West",
      "arena": "Dee Glen Smith Spectrum",
      "city": "Logan",
      "state": "UT",
      "coordinates": {
        "latitude": 41.742,
        "longitude": -111.8137
      }
    },
    {
      "school": "Wyoming",
      "conference": "Mountain West",
      "arena": "Arena-Auditorium",
      "city": "Laramie",
      "state": "WY",
      "coordinates": {
        "latitude": 41.312,
        "longitude": -105.5758
      }
    },
    {
      "school": "Central Connecticut",
      "conference": "NEC",
      "arena": "Detrick Gymnasium",
      "city": "New Britain",
      "state": "CT",
      "coordinates": {
        "latitude": 41.6755,
        "longitude": -72.8788
      }
    },
    {
      "school": "Fairleigh Dickinson",
      "conference": "NEC",
      "arena": "Rothman Center",
      "city": "Hackensack",
      "state": "NJ",
      "coordinates": {
        "latitude": 40.8868,
        "longitude": -74.0435
      }
    },
    {
      "school": "LIU",
      "conference": "NEC",
      "arena": "Steinberg Wellness Center",
      "city": "Brookville",
      "state": "NY",
      "coordinates": {
        "latitude": 40.8182,
        "longitude": -73.5958
      }
    },
    {
      "school": "Mercyhurst",
      "conference": "NEC",
      "arena": "Mercyhurst Athletic Center",
      "city": "Erie",
      "state": "PA",
      "coordinates": {
        "latitude": 42.1086,
        "longitude": -80.0759
      }
    },
    {
      "school": "Sacred Heart",
      "conference": "NEC",
      "arena": "William H. Pitt Center",
      "city": "Fairfield",
      "state": "CT",
      "coordinates": {
        "latitude": 41.1732,
        "longitude": -73.2413
      }
    },
    {
      "school": "Saint Francis (PA)",
      "conference": "NEC",
      "arena": "DeGol Arena",
      "city": "Loretto",
      "state": "PA",
      "coordinates": {
        "latitude": 40.4982,
        "longitude": -78.6375
      }
    },
    {
      "school": "Stonehill",
      "conference": "NEC",
      "arena": "Merkert Gymnasium",
      "city": "North Easton",
      "state": "MA",
      "coordinates": {
        "latitude": 42.0618,
        "longitude": -71.1058
      }
    },
    {
      "school": "Wagner",
      "conference": "NEC",
      "arena": "Spiro Sports Center",
      "city": "Staten Island",
      "state": "NY",
      "coordinates": {
        "latitude": 40.6357,
        "longitude": -74.1093
      }
    },
    {
      "school": "Belmont",
      "conference": "OVC",
      "arena": "Curb Event Center",
      "city": "Nashville",
      "state": "TN",
      "coordinates": {
        "latitude": 36.1317,
        "longitude": -86.7949
      }
    },
    {
      "school": "Eastern Illinois",
      "conference": "OVC",
      "arena": "Lantz Arena",
      "city": "Charleston",
      "state": "IL",
      "coordinates": {
        "latitude": 39.482,
        "longitude": -88.1743
      }
    },
    {
      "school": "Lindenwood",
      "conference": "OVC",
      "arena": "Hyland Arena",
      "city": "St. Charles",
      "state": "MO",
      "coordinates": {
        "latitude": 38.7833,
        "longitude": -90.5076
      }
    },
    {
      "school": "Morehead State",
      "conference": "OVC",
      "arena": "Johnson Arena",
      "city": "Morehead",
      "state": "KY",
      "coordinates": {
        "latitude": 38.1871,
        "longitude": -83.4309
      }
    },
    {
      "school": "Southeast Missouri State",
      "conference": "OVC",
      "arena": "Show Me Center",
      "city": "Cape Girardeau",
      "state": "MO",
      "coordinates": {
        "latitude": 37.2993,
        "longitude": -89.5157
      }
    },
    {
      "school": "SIU Edwardsville",
      "conference": "OVC",
      "arena": "First Community Arena",
      "city": "Edwardsville",
      "state": "IL",
      "coordinates": {
        "latitude": 38.7981,
        "longitude": -89.9553
      }
    },
    {
      "school": "Tennessee State",
      "conference": "OVC",
      "arena": "Gentry Center",
      "city": "Nashville",
      "state": "TN",
      "coordinates": {
        "latitude": 36.1674,
        "longitude": -86.8384
      }
    },
    {
      "school": "Tennessee Tech",
      "conference": "OVC",
      "arena": "Hooper Eblen Center",
      "city": "Cookeville",
      "state": "TN",
      "coordinates": {
        "latitude": 36.1597,
        "longitude": -85.5013
      }
    },
    {
      "school": "UT Martin",
      "conference": "OVC",
      "arena": "Elam Center",
      "city": "Martin",
      "state": "TN",
      "coordinates": {
        "latitude": 36.3382,
        "longitude": -88.8564
      }
    },
    {
      "school": "Oregon State",
      "conference": "Pac-12",
      "arena": "Gill Coliseum",
      "city": "Corvallis",
      "state": "OR",
      "coordinates": {
        "latitude": 44.5647,
        "longitude": -123.2793
      }
    },
    {
      "school": "Washington State",
      "conference": "Pac-12",
      "arena": "Beasley Coliseum",
      "city": "Pullman",
      "state": "WA",
      "coordinates": {
        "latitude": 46.7298,
        "longitude": -117.1556
      }
    },
    {
      "school": "American",
      "conference": "Patriot League",
      "arena": "Bender Arena",
      "city": "Washington",
      "state": "DC",
      "coordinates": {
        "latitude": 38.9368,
        "longitude": -77.0853
      }
    },
    {
      "school": "Army",
      "conference": "Patriot League",
      "arena": "Christl Arena",
      "city": "West Point",
      "state": "NY",
      "coordinates": {
        "latitude": 41.3918,
        "longitude": -73.9573
      }
    },
    {
      "school": "Boston University",
      "conference": "Patriot League",
      "arena": "Case Gymnasium",
      "city": "Boston",
      "state": "MA",
      "coordinates": {
        "latitude": 42.3504,
        "longitude": -71.1054
      }
    },
    {
      "school": "Bucknell",
      "conference": "Patriot League",
      "arena": "Sojka Pavilion",
      "city": "Lewisburg",
      "state": "PA",
      "coordinates": {
        "latitude": 40.9551,
        "longitude": -76.8825
      }
    },
    {
      "school": "Colgate",
      "conference": "Patriot League",
      "arena": "Cotterell Court",
      "city": "Hamilton",
      "state": "NY",
      "coordinates": {
        "latitude": 42.8195,
        "longitude": -75.53
      }
    },
    {
      "school": "Holy Cross",
      "conference": "Patriot League",
      "arena": "Hart Center",
      "city": "Worcester",
      "state": "MA",
      "coordinates": {
        "latitude": 42.2408,
        "longitude": -71.8078
      }
    },
    {
      "school": "Lafayette",
      "conference": "Patriot League",
      "arena": "Kirby Sports Center",
      "city": "Easton",
      "state": "PA",
      "coordinates": {
        "latitude": 40.7094,
        "longitude": -75.2394
      }
    },
    {
      "school": "Lehigh",
      "conference": "Patriot League",
      "arena": "Stabler Arena",
      "city": "Bethlehem",
      "state": "PA",
      "coordinates": {
        "latitude": 40.6073,
        "longitude": -75.378
      }
    },
    {
      "school": "Loyola (MD)",
      "conference": "Patriot League",
      "arena": "Reitz Arena",
      "city": "Baltimore",
      "state": "MD",
      "coordinates": {
        "latitude": 39.3615,
        "longitude": -76.6196
      }
    },
    {
      "school": "Alabama",
      "conference": "SEC",
      "arena": "Coleman Coliseum",
      "city": "Tuscaloosa",
      "state": "AL",
      "coordinates": {
        "latitude": 33.2102,
        "longitude": -87.5534
      }
    },
    {
      "school": "Arkansas",
      "conference": "SEC",
      "arena": "Bud Walton Arena",
      "city": "Fayetteville",
      "state": "AR",
      "coordinates": {
        "latitude": 36.0674,
        "longitude": -94.176
      }
    },
    {
      "school": "Auburn",
      "conference": "SEC",
      "arena": "Neville Arena",
      "city": "Auburn",
      "state": "AL",
      "coordinates": {
        "latitude": 32.6008,
        "longitude": -85.4888
      }
    },
    {
      "school": "Florida",
      "conference": "SEC",
      "arena": "Stephen C. O'Connell Center",
      "city": "Gainesville",
      "state": "FL",
      "coordinates": {
        "latitude": 29.6499,
        "longitude": -82.3486
      }
    },
    {
      "school": "Georgia",
      "conference": "SEC",
      "arena": "Stegeman Coliseum",
      "city": "Athens",
      "state": "GA",
      "coordinates": {
        "latitude": 33.9477,
        "longitude": -83.3771
      }
    },
    {
      "school": "Kentucky",
      "conference": "SEC",
      "arena": "Rupp Arena",
      "city": "Lexington",
      "state": "KY",
      "coordinates": {
        "latitude": 38.0488,
        "longitude": -84.4992
      }
    },
    {
      "school": "LSU",
      "conference": "SEC",
      "arena": "Pete Maravich Assembly Center",
      "city": "Baton Rouge",
      "state": "LA",
      "coordinates": {
        "latitude": 30.413,
        "longitude": -91.1837
      }
    },
    {
      "school": "Mississippi State",
      "conference": "SEC",
      "arena": "Humphrey Coliseum",
      "city": "Starkville",
      "state": "MS",
      "coordinates": {
        "latitude": 33.4554,
        "longitude": -88.7878
      }
    },
    {
      "school": "Missouri",
      "conference": "SEC",
      "arena": "Mizzou Arena",
      "city": "Columbia",
      "state": "MO",
      "coordinates": {
        "latitude": 38.9463,
        "longitude": -92.3335
      }
    },
    {
      "school": "Oklahoma",
      "conference": "SEC",
      "arena": "Lloyd Noble Center",
      "city": "Norman",
      "state": "OK",
      "coordinates": {
        "latitude": 35.1958,
        "longitude": -97.4519
      }
    },
    {
      "school": "Ole Miss",
      "conference": "SEC",
      "arena": "Sandy and John Black Pavilion",
      "city": "Oxford",
      "state": "MS",
      "coordinates": {
        "latitude": 34.3644,
        "longitude": -89.5419
      }
    },
    {
      "school": "South Carolina",
      "conference": "SEC",
      "arena": "Colonial Life Arena",
      "city": "Columbia",
      "state": "SC",
      "coordinates": {
        "latitude": 33.9969,
        "longitude": -81.0335
      }
    },
    {
      "school": "Tennessee",
      "conference": "SEC",
      "arena": "Thompson-Boling Arena",
      "city": "Knoxville",
      "state": "TN",
      "coordinates": {
        "latitude": 35.9548,
        "longitude": -83.9253
      }
    },
    {
      "school": "Texas",
      "conference": "SEC",
      "arena": "Moody Center",
      "city": "Austin",
      "state": "TX",
      "coordinates": {
        "latitude": 30.2894,
        "longitude": -97.7331
      }
    },
    {
      "school": "Texas A&M",
      "conference": "SEC",
      "arena": "Reed Arena",
      "city": "College Station",
      "state": "TX",
      "coordinates": {
        "latitude": 30.6122,
        "longitude": -96.3405
      }
    },
    {
      "school": "Vanderbilt",
      "conference": "SEC",
      "arena": "Memorial Gymnasium",
      "city": "Nashville",
      "state": "TN",
      "coordinates": {
        "latitude": 36.1434,
        "longitude": -86.8027
      }
    },
    {
      "school": "Chattanooga",
      "conference": "Southern",
      "arena": "Propst Arena",
      "city": "Chattanooga",
      "state": "TN",
      "coordinates": {
        "latitude": 35.0455,
        "longitude": -85.3097
      }
    },
    {
      "school": "The Citadel",
      "conference": "Southern",
      "arena": "McAlister Field House",
      "city": "Charleston",
      "state": "SC",
      "coordinates": {
        "latitude": 32.8075,
        "longitude": -79.9616
      }
    },
    {
      "school": "East Tennessee State",
      "conference": "Southern",
      "arena": "Freedom Hall Civic Center",
      "city": "Johnson City",
      "state": "TN",
      "coordinates": {
        "latitude": 36.3134,
        "longitude": -82.3535
      }
    },
    {
      "school": "Furman",
      "conference": "Southern",
      "arena": "Timmons Arena",
      "city": "Greenville",
      "state": "SC",
      "coordinates": {
        "latitude": 34.9268,
        "longitude": -82.4397
      }
    },
    {
      "school": "Mercer",
      "conference": "Southern",
      "arena": "Hawkins Arena",
      "city": "Macon",
      "state": "GA",
      "coordinates": {
        "latitude": 32.8406,
        "longitude": -83.6435
      }
    },
    {
      "school": "Samford",
      "conference": "Southern",
      "arena": "Pete Hanna Center",
      "city": "Birmingham",
      "state": "AL",
      "coordinates": {
        "latitude": 33.4626,
        "longitude": -86.7807
      }
    },
    {
      "school": "UNCG",
      "conference": "Southern",
      "arena": "Spartans Arena",
      "city": "Greensboro",
      "state": "NC",
      "coordinates": {
        "latitude": 36.0688,
        "longitude": -79.8112
      }
    },
    {
      "school": "VMI",
      "conference": "Southern",
      "arena": "Cameron Hall",
      "city": "Lexington",
      "state": "VA",
      "coordinates": {
        "latitude": 37.7842,
        "longitude": -79.4428
      }
    },
    {
      "school": "Western Carolina",
      "conference": "Southern",
      "arena": "Ramsey Regional Activity Center",
      "city": "Cullowhee",
      "state": "NC",
      "coordinates": {
        "latitude": 35.3096,
        "longitude": -83.1802
      }
    },
    {
      "school": "Wofford",
      "conference": "Southern",
      "arena": "Jerry Richardson Indoor Stadium",
      "city": "Spartanburg",
      "state": "SC",
      "coordinates": {
        "latitude": 34.9304,
        "longitude": -81.9448
      }
    },
    {
      "school": "Houston Baptist",
      "conference": "Southland",
      "arena": "Sharp Gymnasium",
      "city": "Houston",
      "state": "TX",
      "coordinates": {
        "latitude": 29.7099,
        "longitude": -95.5479
      }
    },
    {
      "school": "Incarnate Word",
      "conference": "Southland",
      "arena": "Alice McDermott Convocation Center",
      "city": "San Antonio",
      "state": "TX",
      "coordinates": {
        "latitude": 29.4638,
        "longitude": -98.4567
      }
    },
    {
      "school": "Lamar",
      "conference": "Southland",
      "arena": "Montagne Center",
      "city": "Beaumont",
      "state": "TX",
      "coordinates": {
        "latitude": 30.086,
        "longitude": -94.1342
      }
    },
    {
      "school": "McNeese",
      "conference": "Southland",
      "arena": "Burton Coliseum",
      "city": "Lake Charles",
      "state": "LA",
      "coordinates": {
        "latitude": 30.2163,
        "longitude": -93.2166
      }
    },
    {
      "school": "Nicholls",
      "conference": "Southland",
      "arena": "Stopher Gymnasium",
      "city": "Thibodaux",
      "state": "LA",
      "coordinates": {
        "latitude": 29.7949,
        "longitude": -90.8178
      }
    },
    {
      "school": "Northwestern State",
      "conference": "Southland",
      "arena": "Prather Coliseum",
      "city": "Natchitoches",
      "state": "LA",
      "coordinates": {
        "latitude": 31.6085,
        "longitude": -93.0852
      }
    },
    {
      "school": "SE Louisiana",
      "conference": "Southland",
      "arena": "University Center",
      "city": "Hammond",
      "state": "LA",
      "coordinates": {
        "latitude": 30.5185,
        "longitude": -90.4761
      }
    },
    {
      "school": "Stephen F. Austin",
      "conference": "Southland",
      "arena": "William R. Johnson Coliseum",
      "city": "Nacogdoches",
      "state": "TX",
      "coordinates": {
        "latitude": 31.6121,
        "longitude": -94.6579
      }
    },
    {
      "school": "Texas A&M-Corpus Christi",
      "conference": "Southland",
      "arena": "American Bank Center",
      "city": "Corpus Christi",
      "state": "TX",
      "coordinates": {
        "latitude": 27.8006,
        "longitude": -97.3964
      }
    },
    {
      "school": "Alabama A&M",
      "conference": "SWAC",
      "arena": "Elmore Gymnasium",
      "city": "Huntsville",
      "state": "AL",
      "coordinates": {
        "latitude": 34.7861,
        "longitude": -86.5682
      }
    },
    {
      "school": "Alabama State",
      "conference": "SWAC",
      "arena": "Dunn-Oliver Acadome",
      "city": "Montgomery",
      "state": "AL",
      "coordinates": {
        "latitude": 32.3647,
        "longitude": -86.2972
      }
    },
    {
      "school": "Alcorn State",
      "conference": "SWAC",
      "arena": "Davey L. Whitney Complex",
      "city": "Lorman",
      "state": "MS",
      "coordinates": {
        "latitude": 31.8502,
        "longitude": -90.9973
      }
    },
    {
      "school": "Arkansas-Pine Bluff",
      "conference": "SWAC",
      "arena": "H.O. Clemmons Arena",
      "city": "Pine Bluff",
      "state": "AR",
      "coordinates": {
        "latitude": 34.2284,
        "longitude": -92.0032
      }
    },
    {
      "school": "Grambling State",
      "conference": "SWAC",
      "arena": "Memorial Gymnasium",
      "city": "Grambling",
      "state": "LA",
      "coordinates": {
        "latitude": 32.5264,
        "longitude": -92.7189
      }
    },
    {
      "school": "Jackson State",
      "conference": "SWAC",
      "arena": "Lee E. Williams Athletics and Assembly Center",
      "city": "Jackson",
      "state": "MS",
      "coordinates": {
        "latitude": 32.2949,
        "longitude": -90.2116
      }
    },
    {
      "school": "Mississippi Valley State",
      "conference": "SWAC",
      "arena": "Harrison HPER Complex",
      "city": "Itta Bena",
      "state": "MS",
      "coordinates": {
        "latitude": 33.4943,
        "longitude": -90.3226
      }
    },
    {
      "school": "Prairie View A&M",
      "conference": "SWAC",
      "arena": "Nicks Building",
      "city": "Prairie View",
      "state": "TX",
      "coordinates": {
        "latitude": 30.0924,
        "longitude": -95.9821
      }
    },
    {
      "school": "Southern",
      "conference": "SWAC",
      "arena": "F.G. Clark Activity Center",
      "city": "Baton Rouge",
      "state": "LA",
      "coordinates": {
        "latitude": 30.5231,
        "longitude": -91.189
      }
    },
    {
      "school": "Texas Southern",
      "conference": "SWAC",
      "arena": "Health and Physical Education Arena",
      "city": "Houston",
      "state": "TX",
      "coordinates": {
        "latitude": 29.7245,
        "longitude": -95.3524
      }
    },
    {
      "school": "Denver",
      "conference": "Summit League",
      "arena": "Magness Arena",
      "city": "Denver",
      "state": "CO",
      "coordinates": {
        "latitude": 39.6787,
        "longitude": -104.9614
      }
    },
    {
      "school": "Kansas City",
      "conference": "Summit League",
      "arena": "Swinney Recreation Center",
      "city": "Kansas City",
      "state": "MO",
      "coordinates": {
        "latitude": 39.0296,
        "longitude": -94.5774
      }
    },
    {
      "school": "North Dakota",
      "conference": "Summit League",
      "arena": "Betty Engelstad Sioux Center",
      "city": "Grand Forks",
      "state": "ND",
      "coordinates": {
        "latitude": 47.9044,
        "longitude": -97.0674
      }
    },
    {
      "school": "North Dakota State",
      "conference": "Summit League",
      "arena": "Scheels Center",
      "city": "Fargo",
      "state": "ND",
      "coordinates": {
        "latitude": 46.8669,
        "longitude": -96.8257
      }
    },
    {
      "school": "Omaha",
      "conference": "Summit League",
      "arena": "Baxter Arena",
      "city": "Omaha",
      "state": "NE",
      "coordinates": {
        "latitude": 41.2669,
        "longitude": -96.0598
      }
    },
    {
      "school": "Oral Roberts",
      "conference": "Summit League",
      "arena": "Mabee Center",
      "city": "Tulsa",
      "state": "OK",
      "coordinates": {
        "latitude": 36.1538,
        "longitude": -95.9327
      }
    },
    {
      "school": "South Dakota",
      "conference": "Summit League",
      "arena": "Sanford Coyote Sports Center",
      "city": "Vermillion",
      "state": "SD",
      "coordinates": {
        "latitude": 42.787,
        "longitude": -96.9352
      }
    },
    {
      "school": "South Dakota State",
      "conference": "Summit League",
      "arena": "Frost Arena",
      "city": "Brookings",
      "state": "SD",
      "coordinates": {
        "latitude": 44.3114,
        "longitude": -96.7984
      }
    },
    {
      "school": "St. Thomas (MN)",
      "conference": "Summit League",
      "arena": "Lee & Penny Anderson Arena",
      "city": "St. Paul",
      "state": "MN",
      "coordinates": {
        "latitude": 44.9426,
        "longitude": -93.1033
      }
    },
    {
      "school": "Appalachian State",
      "conference": "Sun Belt",
      "arena": "Holmes Convocation Center",
      "city": "Boone",
      "state": "NC",
      "coordinates": {
        "latitude": 36.2121,
        "longitude": -81.6882
      }
    },
    {
      "school": "Arkansas State",
      "conference": "Sun Belt",
      "arena": "First National Bank Arena",
      "city": "Jonesboro",
      "state": "AR",
      "coordinates": {
        "latitude": 35.8324,
        "longitude": -90.6945
      }
    },
    {
      "school": "Coastal Carolina",
      "conference": "Sun Belt",
      "arena": "HTC Center",
      "city": "Conway",
      "state": "SC",
      "coordinates": {
        "latitude": 33.7872,
        "longitude": -79.0144
      }
    },
    {
      "school": "Georgia Southern",
      "conference": "Sun Belt",
      "arena": "Hanner Fieldhouse",
      "city": "Statesboro",
      "state": "GA",
      "coordinates": {
        "latitude": 32.4166,
        "longitude": -81.7782
      }
    },
    {
      "school": "Georgia State",
      "conference": "Sun Belt",
      "arena": "GSU Sports Arena",
      "city": "Atlanta",
      "state": "GA",
      "coordinates": {
        "latitude": 33.7531,
        "longitude": -84.3862
      }
    },
    {
      "school": "James Madison",
      "conference": "Sun Belt",
      "arena": "Atlantic Union Bank Center",
      "city": "Harrisonburg",
      "state": "VA",
      "coordinates": {
        "latitude": 38.4362,
        "longitude": -78.8691
      }
    },
    {
      "school": "Louisiana",
      "conference": "Sun Belt",
      "arena": "Cajundome",
      "city": "Lafayette",
      "state": "LA",
      "coordinates": {
        "latitude": 30.2107,
        "longitude": -92.0199
      }
    },
    {
      "school": "Louisiana Monroe",
      "conference": "Sun Belt",
      "arena": "Fant-Ewing Coliseum",
      "city": "Monroe",
      "state": "LA",
      "coordinates": {
        "latitude": 32.5297,
        "longitude": -92.071
      }
    },
    {
      "school": "Marshall",
      "conference": "Sun Belt",
      "arena": "Cam Henderson Center",
      "city": "Huntington",
      "state": "WV",
      "coordinates": {
        "latitude": 38.4244,
        "longitude": -82.4279
      }
    },
    {
      "school": "Old Dominion",
      "conference": "Sun Belt",
      "arena": "Chartway Arena",
      "city": "Norfolk",
      "state": "VA",
      "coordinates": {
        "latitude": 36.8865,
        "longitude": -76.3053
      }
    },
    {
      "school": "South Alabama",
      "conference": "Sun Belt",
      "arena": "Mitchell Center",
      "city": "Mobile",
      "state": "AL",
      "coordinates": {
        "latitude": 30.6988,
        "longitude": -88.1688
      }
    },
    {
      "school": "Southern Miss",
      "conference": "Sun Belt",
      "arena": "Reed Green Coliseum",
      "city": "Hattiesburg",
      "state": "MS",
      "coordinates": {
        "latitude": 31.3301,
        "longitude": -89.3307
      }
    },
    {
      "school": "Texas State",
      "conference": "Sun Belt",
      "arena": "Strahan Arena",
      "city": "San Marcos",
      "state": "TX",
      "coordinates": {
        "latitude": 29.8849,
        "longitude": -97.9413
      }
    },
    {
      "school": "Troy",
      "conference": "Sun Belt",
      "arena": "Trojan Arena",
      "city": "Troy",
      "state": "AL",
      "coordinates": {
        "latitude": 31.7988,
        "longitude": -85.9739
      }
    },
    {
      "school": "Abilene Christian",
      "conference": "WAC",
      "arena": "Moody Coliseum",
      "city": "Abilene",
      "state": "TX",
      "coordinates": {
        "latitude": 32.4492,
        "longitude": -99.7356
      }
    },
    {
      "school": "California Baptist",
      "conference": "WAC",
      "arena": "CBU Events Center",
      "city": "Riverside",
      "state": "CA",
      "coordinates": {
        "latitude": 33.9384,
        "longitude": -117.4046
      }
    },
    {
      "school": "New Mexico State",
      "conference": "WAC",
      "arena": "Pan American Center",
      "city": "Las Cruces",
      "state": "NM",
      "coordinates": {
        "latitude": 32.2803,
        "longitude": -106.7497
      }
    },
    {
      "school": "Sacramento State",
      "conference": "WAC",
      "arena": "The Nest",
      "city": "Sacramento",
      "state": "CA",
      "coordinates": {
        "latitude": 38.5588,
        "longitude": -121.4237
      }
    },
    {
      "school": "Tarleton State",
      "conference": "WAC",
      "arena": "EECU Center",
      "city": "Stephenville",
      "state": "TX",
      "coordinates": {
        "latitude": 32.2307,
        "longitude": -98.2022
      }
    },
    {
      "school": "UT Arlington",
      "conference": "WAC",
      "arena": "College Park Center",
      "city": "Arlington",
      "state": "TX",
      "coordinates": {
        "latitude": 32.7306,
        "longitude": -97.108
      }
    },
    {
      "school": "Utah Valley",
      "conference": "WAC",
      "arena": "UCCU Center",
      "city": "Orem",
      "state": "UT",
      "coordinates": {
        "latitude": 40.2791,
        "longitude": -111.7113
      }
    },
    {
      "school": "Gonzaga",
      "conference": "WCC",
      "arena": "McCarthey Athletic Center",
      "city": "Spokane",
      "state": "WA",
      "coordinates": {
        "latitude": 47.6671,
        "longitude": -117.4014
      }
    },
    {
      "school": "Loyola Marymount",
      "conference": "WCC",
      "arena": "Gersten Pavilion",
      "city": "Los Angeles",
      "state": "CA",
      "coordinates": {
        "latitude": 33.9714,
        "longitude": -118.4168
      }
    },
    {
      "school": "Pacific",
      "conference": "WCC",
      "arena": "Spanos Center",
      "city": "Stockton",
      "state": "CA",
      "coordinates": {
        "latitude": 37.9851,
        "longitude": -121.3099
      }
    },
    {
      "school": "Pepperdine",
      "conference": "WCC",
      "arena": "Firestone Fieldhouse",
      "city": "Malibu",
      "state": "CA",
      "coordinates": {
        "latitude": 34.0367,
        "longitude": -118.7073
      }
    },
    {
      "school": "Portland",
      "conference": "WCC",
      "arena": "Chiles Center",
      "city": "Portland",
      "state": "OR",
      "coordinates": {
        "latitude": 45.5428,
        "longitude": -122.7359
      }
    },
    {
      "school": "Saint Mary's (CA)",
      "conference": "WCC",
      "arena": "McKeon Pavilion",
      "city": "Moraga",
      "state": "CA",
      "coordinates": {
        "latitude": 37.8422,
        "longitude": -122.1132
      }
    },
    {
      "school": "San Diego",
      "conference": "WCC",
      "arena": "Jenny Craig Pavilion",
      "city": "San Diego",
      "state": "CA",
      "coordinates": {
        "latitude": 32.7716,
        "longitude": -117.1917
      }
    },
    {
      "school": "San Francisco",
      "conference": "WCC",
      "arena": "War Memorial Gymnasium",
      "city": "San Francisco",
      "state": "CA",
      "coordinates": {
        "latitude": 37.7762,
        "longitude": -122.4516
      }
    },
    {
      "school": "Santa Clara",
      "conference": "WCC",
      "arena": "Leavey Center",
      "city": "Santa Clara",
      "state": "CA",
      "coordinates": {
        "latitude": 37.3487,
        "longitude": -121.9407
      }
    },
    {
      "school": "Seattle",
      "conference": "WCC",
      "arena": "Redhawk Center",
      "city": "Seattle",
      "state": "WA",
      "coordinates": {
        "latitude": 47.6151,
        "longitude": -122.3183
      }
    }
  ]
}